{
"type": "FeatureCollection",
"name": "Lilydale_to_Warburton_Rail_Trail_waypoints",
"crs": { "type": "name", "properties": { "name": "urn:ogc:def:crs:OGC:1.3:CRS84" } },
"features": [
{ "type": "Feature", "properties": { "Name": "Car park" }, "geometry": { "type": "Point", "coordinates": [ 145.349859036505194, -37.753910003229983, 102.9 ] } },
{ "type": "Feature", "properties": { "Name": "Car park" }, "geometry": { "type": "Point", "coordinates": [ 145.528061985969487, -37.775345966219902, 94.6 ] } },
{ "type": "Feature", "properties": { "Name": "Car park" }, "geometry": { "type": "Point", "coordinates": [ 145.586532969027786, -37.776218019425869, 123.1 ] } },
{ "type": "Feature", "properties": { "Name": "Car park" }, "geometry": { "type": "Point", "coordinates": [ 145.609296122565894, -37.780819935724139, 120.0 ] } },
{ "type": "Feature", "properties": { "Name": "Car park" }, "geometry": { "type": "Point", "coordinates": [ 145.613208124414086, -37.781072314828627, 121.6 ] } },
{ "type": "Feature", "properties": { "Name": "Car park" }, "geometry": { "type": "Point", "coordinates": [ 145.680340882390709, -37.755622174590833, 156.8 ] } },
{ "type": "Feature", "properties": { "Name": "Car park" }, "geometry": { "type": "Point", "coordinates": [ 145.688887657597689, -37.754577370360487, 171.2 ] } },
{ "type": "Feature", "properties": { "Name": "Car park" }, "geometry": { "type": "Point", "coordinates": [ 145.365280983969598, -37.763434024527669, 168.2 ] } },
{ "type": "Feature", "properties": { "Name": "Car park" }, "geometry": { "type": "Point", "coordinates": [ 145.365389026701507, -37.763569978997111, 168.2 ] } },
{ "type": "Feature", "properties": { "Name": "Car park" }, "geometry": { "type": "Point", "coordinates": [ 145.387061946094008, -37.78849289752543, 217.8 ] } },
{ "type": "Feature", "properties": { "Name": "Car park" }, "geometry": { "type": "Point", "coordinates": [ 145.4260029271245, -37.777610756456852, 172.3 ] } },
{ "type": "Feature", "properties": { "Name": "Car park" }, "geometry": { "type": "Point", "coordinates": [ 145.457587027922301, -37.769186021760113, 132.6 ] } },
{ "type": "Feature", "properties": { "Name": "Car park" }, "geometry": { "type": "Point", "coordinates": [ 145.459251003339887, -37.767507964745157, 132.6 ] } },
{ "type": "Feature", "properties": { "Name": "Car park" }, "geometry": { "type": "Point", "coordinates": [ 145.460812300443706, -37.765787579119213, 136.6 ] } },
{ "type": "Feature", "properties": { "Name": "Car park" }, "geometry": { "type": "Point", "coordinates": [ 145.494477963075013, -37.758159963414073, 108.6 ] } },
{ "type": "Feature", "properties": { "Name": "Picnic table" }, "geometry": { "type": "Point", "coordinates": [ 145.37875640206039, -37.784115197136998, 233.6 ] } },
{ "type": "Feature", "properties": { "Name": "Picnic table" }, "geometry": { "type": "Point", "coordinates": [ 145.379168121144204, -37.785292938351631, 231.9 ] } },
{ "type": "Feature", "properties": { "Name": "Picnic table" }, "geometry": { "type": "Point", "coordinates": [ 145.430208547040792, -37.777197696268559, 175.7 ] } },
{ "type": "Feature", "properties": { "Name": "Picnic table" }, "geometry": { "type": "Point", "coordinates": [ 145.494477963075013, -37.758159963414073, 108.6 ] } },
{ "type": "Feature", "properties": { "Name": "Picnic table" }, "geometry": { "type": "Point", "coordinates": [ 145.613378444686504, -37.781074913218617, 121.9 ] } },
{ "type": "Feature", "properties": { "Name": "Bridge" }, "geometry": { "type": "Point", "coordinates": [ 145.359581038355799, -37.756708972156048, 134.7 ] } },
{ "type": "Feature", "properties": { "Name": "Bridge" }, "geometry": { "type": "Point", "coordinates": [ 145.409775814041495, -37.781863566488028, 160.8 ] } },
{ "type": "Feature", "properties": { "Name": "Bridge" }, "geometry": { "type": "Point", "coordinates": [ 145.680266702547698, -37.755654444918036, 156.6 ] } },
{ "type": "Feature", "properties": { "Name": "Cafe Penny Olive Sourdough" }, "geometry": { "type": "Point", "coordinates": [ 145.387242073193192, -37.78853690251708, 218.0 ] } },
{ "type": "Feature", "properties": { "Name": "Carriage Cafe" }, "geometry": { "type": "Point", "coordinates": [ 145.457561714574695, -37.769159115850933, 132.4 ] } },
{ "type": "Feature", "properties": { "Name": "Cog Cafe" }, "geometry": { "type": "Point", "coordinates": [ 145.688916742801695, -37.754638893529773, 173.0 ] } },
{ "type": "Feature", "properties": { "Name": "Historical Information" }, "geometry": { "type": "Point", "coordinates": [ 145.426155310124187, -37.777537247166038, 172.7 ] } },
{ "type": "Feature", "properties": { "Name": "Home Hotel" }, "geometry": { "type": "Point", "coordinates": [ 145.584358954802212, -37.775863045826547, 121.8 ] } },
{ "type": "Feature", "properties": { "Name": "Information" }, "geometry": { "type": "Point", "coordinates": [ 145.688905259594293, -37.754602851346142, 172.0 ] } },
{ "type": "Feature", "properties": { "Name": "Long Wooden Bridge" }, "geometry": { "type": "Point", "coordinates": [ 145.511629013344702, -37.764771021902561, 90.3 ] } },
{ "type": "Feature", "properties": { "Name": "Old Killara Station" }, "geometry": { "type": "Point", "coordinates": [ 145.492971986532211, -37.758068013936281, 106.2 ] } },
{ "type": "Feature", "properties": { "Name": "Old Launching Place Station" }, "geometry": { "type": "Point", "coordinates": [ 145.58785596862441, -37.776162028312683, 122.7 ] } },
{ "type": "Feature", "properties": { "Name": "Old Mt Evelyn Station" }, "geometry": { "type": "Point", "coordinates": [ 145.378772160038409, -37.784530939534307, 233.4 ] } },
{ "type": "Feature", "properties": { "Name": "Old Seville Station" }, "geometry": { "type": "Point", "coordinates": [ 145.460642315447302, -37.766002239659429, 135.5 ] } },
{ "type": "Feature", "properties": { "Name": "Old Wandin Station" }, "geometry": { "type": "Point", "coordinates": [ 145.429412685334711, -37.777023268863559, 176.5 ] } },
{ "type": "Feature", "properties": { "Name": "Old Wesburn Station" }, "geometry": { "type": "Point", "coordinates": [ 145.639892918989091, -37.764526102691889, 129.9 ] } },
{ "type": "Feature", "properties": { "Name": "Old Woori Yallock Station" }, "geometry": { "type": "Point", "coordinates": [ 145.528062991797896, -37.775333980098367, 94.5 ] } },
{ "type": "Feature", "properties": { "Name": "Playground" }, "geometry": { "type": "Point", "coordinates": [ 145.378756821155605, -37.784084938466549, 233.3 ] } },
{ "type": "Feature", "properties": { "Name": "Playground" }, "geometry": { "type": "Point", "coordinates": [ 145.528072295710388, -37.775338757783182, 94.5 ] } },
{ "type": "Feature", "properties": { "Name": "Playground" }, "geometry": { "type": "Point", "coordinates": [ 145.611826367676287, -37.781318156048663, 120.3 ] } },
{ "type": "Feature", "properties": { "Name": "Tunnel" }, "geometry": { "type": "Point", "coordinates": [ 145.374385574832587, -37.769335890188813, 199.0 ] } },
{ "type": "Feature", "properties": { "Name": "Upper Yarra Museum" }, "geometry": { "type": "Point", "coordinates": [ 145.609304923564196, -37.780823288485408, 120.0 ] } },
{ "type": "Feature", "properties": { "Name": "Toilet (wheelchair accessible)" }, "geometry": { "type": "Point", "coordinates": [ 145.378782805055408, -37.784151323139668, 234.0 ] } },
{ "type": "Feature", "properties": { "Name": "Toilet (wheelchair accessible)" }, "geometry": { "type": "Point", "coordinates": [ 145.611819410696597, -37.781319748610258, 120.3 ] } },
{ "type": "Feature", "properties": { "Name": "Toilet" }, "geometry": { "type": "Point", "coordinates": [ 145.606592036783695, -37.780137984082103, 127.7 ] } },
{ "type": "Feature", "properties": { "Name": "Toilet" }, "geometry": { "type": "Point", "coordinates": [ 145.653772512450786, -37.755015576258302, 142.8 ] } },
{ "type": "Feature", "properties": { "Name": "Water (drinking tap)" }, "geometry": { "type": "Point", "coordinates": [ 145.379168121144204, -37.785292938351631, 231.9 ] } }
]
}
